timestamp,timestamp_sample,control[0],control[1],control[2],control[3],control[4],control[5],control[6],control[7]
296412544,296412361,-0.22338468,-0.46001667,-0.18615103,0.0,-0.36280912,0.2828083,0.01050818,0.0
296415584,296415364,-0.22074997,-0.4620186,-0.18590152,0.0,-0.36294693,0.28170252,0.009583116,0.0
296418560,296418365,-0.22166026,-0.4613756,-0.18658799,0.0,-0.3623299,0.28022003,0.008340597,0.0
296421586,296421370,-0.22248584,-0.46076018,-0.18643945,0.0,-0.36246687,0.2789433,0.0072788,0.0
296426071,296425875,-0.22484356,-0.45900375,-0.18748057,0.0,-0.36160743,0.28014886,0.008281946,0.0
296430655,296430387,-0.22969198,-0.4554144,-0.18874305,0.0,-0.36056262,0.27765822,0.006200433,0.0
296432110,296431926,-0.23080206,-0.4545949,-0.1889574,0.0,-0.36038178,0.2765242,0.0052542686,0.0
296436575,296436391,-0.23287326,-0.45292324,-0.18841779,0.0,-0.36101693,0.28259444,0.010332823,0.0
296439631,296439439,-0.2327891,-0.45294768,-0.18834251,0.0,-0.36112535,0.28530478,0.0125916,0.0
296442583,296442390,-0.23007113,-0.4549238,-0.18733859,0.0,-0.36200553,0.28839612,0.015174985,0.0
296447173,296446973,-0.225286,-0.45854908,-0.18696082,0.0,-0.36220163,0.28737164,0.014320135,0.0
296450099,296449897,-0.22402245,-0.45951778,-0.1870684,0.0,-0.36206347,0.28698683,0.013994932,0.0
296453082,296452900,-0.22477776,-0.4589125,-0.1865946,0.0,-0.3625248,0.28806233,0.0148944855,0.0
296457583,296457404,-0.22479326,-0.45891482,-0.18696332,0.0,-0.3621946,0.2883128,0.015097618,0.0
296460594,296460408,-0.22506976,-0.45871443,-0.18706673,0.0,-0.362104,0.2879727,0.014816761,0.0
296463600,296463410,-0.22803384,-0.45646417,-0.18689132,0.0,-0.36233658,0.2876284,0.014532328,0.0
296468108,296467918,-0.23230577,-0.45326734,-0.1869815,0.0,-0.3623262,0.2845615,0.011970043,0.0
296471150,296470936,-0.23300284,-0.45276153,-0.18704855,0.0,-0.36226082,0.28289378,0.010577321,0.0
296474118,296473940,-0.23209405,-0.45341748,-0.18627226,0.0,-0.36293572,0.28278387,0.010486007,0.0
296478639,296478431,-0.230402,-0.45467275,-0.18572646,0.0,-0.363388,0.28300786,0.010672331,0.0
296481639,296481446,-0.22896701,-0.4557631,-0.18609434,0.0,-0.3630334,0.28404462,0.011539221,0.0
296484668,296484480,-0.2262013,-0.4578765,-0.1864804,0.0,-0.36261088,0.2840892,0.011578679,0.0
296489147,296488947,-0.22322476,-0.46027005,-0.18796098,0.0,-0.36111003,0.2782997,0.0067379475,0.0
296492178,296491987,-0.22444397,-0.4593386,-0.18824154,0.0,-0.36091143,0.2799759,0.008142233,0.0
296495136,296494944,-0.22730339,-0.4572109,-0.18935215,0.0,-0.35999572,0.28064382,0.008695483,0.0
296499691,296499496,-0.22749221,-0.45704645,-0.18912208,0.0,-0.36022204,0.28168225,0.009565473,0.0
296502658,296502461,-0.22978568,-0.45533007,-0.18891352,0.0,-0.36043513,0.27911627,0.0074204206,0.0
296505648,296505453,-0.23228586,-0.4534341,-0.18839544,0.0,-0.36094332,0.27733028,0.0059314966,0.0
296510180,296509958,-0.23345125,-0.4524967,-0.18691283,0.0,-0.36229974,0.2764287,0.0051625967,0.0
296513150,296512961,-0.23236656,-0.4532535,-0.18625987,0.0,-0.36290425,0.27918148,0.0074808598,0.0
296516152,296515965,-0.22964716,-0.45527023,-0.18642163,0.0,-0.3627454,0.28317487,0.0108116865,0.0
296520690,296520468,-0.22431439,-0.45931697,-0.18682098,0.0,-0.36225796,0.28429508,0.0117458105,0.0
296523663,296523471,-0.22180128,-0.46121758,-0.18687308,0.0,-0.36215115,0.28497696,0.012317777,0.0
296526661,296526476,-0.222731,-0.46054226,-0.18728071,0.0,-0.36179405,0.28410935,0.0115891695,0.0
296531181,296530985,-0.2230972,-0.46026868,-0.18713045,0.0,-0.3619277,0.2833686,0.010973573,0.0
296534195,296533994,-0.22285956,-0.46043956,-0.1867469,0.0,-0.36225832,0.2828672,0.0105547905,0.0
296537217,296537034,-0.2248022,-0.45896363,-0.18671584,0.0,-0.3623411,0.2831118,0.010760188,0.0
296541726,296541489,-0.22996902,-0.45509607,-0.18719542,0.0,-0.36201382,0.28078818,0.008814573,0.0
296544726,296544545,-0.23056293,-0.45463133,-0.1865462,0.0,-0.3625989,0.2796501,0.0078703165,0.0
296547692,296547500,-0.23337156,-0.45251375,-0.1868313,0.0,-0.36241806,0.279554,0.0077854395,0.0
296552249,296552056,-0.23182297,-0.4537031,-0.1874553,0.0,-0.36182636,0.280334,0.008435607,0.0
296555215,296555004,-0.23010004,-0.45503205,-0.1882171,0.0,-0.36110634,0.28114855,0.00912106,0.0
296558215,296558017,-0.22992766,-0.45517856,-0.18828082,0.0,-0.3610294,0.28013456,0.008273363,0.0
296562739,296562511,-0.22505182,-0.45883512,-0.18809134,0.0,-0.36110634,0.2827127,0.010427475,0.0
296565725,296565530,-0.22260141,-0.4606653,-0.18781614,0.0,-0.36130577,0.28408706,0.011575222,0.0
296568715,296568520,-0.22316146,-0.46024472,-0.18771183,0.0,-0.3614059,0.28351295,0.011092663,0.0
296573233,296573021,-0.22752464,-0.4568931,-0.18658137,0.0,-0.36253518,0.28303647,0.010699749,0.0
296576217,296576026,-0.22877622,-0.45591652,-0.18604839,0.0,-0.36305654,0.28344977,0.011044502,0.0
296579236,296579042,-0.23206961,-0.4534161,-0.18643403,0.0,-0.36281943,0.28488934,0.012242317,0.0
296583730,296583532,-0.23297793,-0.45275003,-0.1875757,0.0,-0.36184663,0.28687704,0.0139017105,0.0
296586717,296586535,-0.2312221,-0.4540891,-0.18795931,0.0,-0.36146343,0.2874676,0.01439786,0.0
296589795,296589586,-0.23052108,-0.45462805,-0.1878236,0.0,-0.361552,0.2864759,0.013567448,0.0
296594233,296594045,-0.22812498,-0.4564439,-0.18727654,0.0,-0.3619538,0.2846899,0.012074828,0.0
296597290,296597094,-0.22776574,-0.45673597,-0.18769199,0.0,-0.3615669,0.2844925,0.011909604,0.0
296600238,296600048,-0.22680515,-0.45744306,-0.18765765,0.0,-0.36159545,0.28617454,0.013317347,0.0
296606368,296606101,-0.2260558,-0.45804745,-0.18783808,0.0,-0.3613786,0.28397512,0.011476874,0.0
296607753,296607558,-0.22729343,-0.45712525,-0.1878112,0.0,-0.3614167,0.28258228,0.010315537,0.0
296610741,296610559,-0.22849071,-0.45622283,-0.18758398,0.0,-0.36163598,0.2813443,0.009278059,0.0
296615264,296615064,-0.23119372,-0.454108,-0.1875422,0.0,-0.36182135,0.28631508,0.013436317,0.0
296618262,296618069,-0.23233914,-0.45323557,-0.18792003,0.0,-0.36153543,0.28783417,0.014703274,0.0
296621287,296621103,-0.23276216,-0.4529274,-0.18791378,0.0,-0.3615371,0.28675282,0.01379621,0.0
296625786,296625574,-0.23426342,-0.45185775,-0.18838638,0.0,-0.36109436,0.28287148,0.010558128,0.0
296628787,296628591,-0.23191166,-0.45358425,-0.18666166,0.0,-0.36256582,0.28146052,0.009388566,0.0
296631776,296631581,-0.22988135,-0.4550795,-0.18584025,0.0,-0.36326307,0.2821344,0.009943247,0.0
296636306,296636087,-0.22778869,-0.45666414,-0.18578851,0.0,-0.36325312,0.28214025,0.009948134,0.0
296639285,296639091,-0.22575283,-0.458234,-0.18654454,0.0,-0.3625232,0.28270268,0.0104135275,0.0
296642330,296642148,-0.22698253,-0.45729333,-0.18645185,0.0,-0.36264402,0.28312814,0.010772228,0.0
296646816,296646599,-0.22916836,-0.4556498,-0.18711764,0.0,-0.3621214,0.2843641,0.011802554,0.0
296649833,296649647,-0.22915286,-0.4557253,-0.18819231,0.0,-0.36113036,0.28296697,0.010632515,0.0
296652795,296652602,-0.23120564,-0.45419782,-0.18868595,0.0,-0.36073142,0.2823769,0.010141611,0.0
296655894,296655614,-0.23085439,-0.45446593,-0.1890418,0.0,-0.36041695,0.2834376,0.011030674,0.0
296660318,296660132,-0.23068601,-0.45456082,-0.1878956,0.0,-0.36142743,0.28207123,0.0098929405,0.0
296663384,296663113,-0.2294603,-0.45549595,-0.18787491,0.0,-0.36140507,0.28154385,0.0094486475,0.0
296669367,296669168,-0.22835869,-0.45632833,-0.1872608,0.0,-0.36190206,0.27969253,0.007904172,0.0
296670813,296670623,-0.22804779,-0.45653516,-0.18676263,0.0,-0.36235064,0.28026676,0.008385301,0.0
296673820,296673624,-0.22675681,-0.45749557,-0.18663144,0.0,-0.3624491,0.28127694,0.009226203,0.0
296678321,296678137,-0.22685945,-0.45742416,-0.18635255,0.0,-0.36268288,0.2798251,0.008016825,0.0
296681311,296681132,-0.22622418,-0.45789355,-0.18669766,0.0,-0.3623854,0.281955,0.009791493,0.0
296684432,296684215,-0.2276063,-0.4568829,-0.18808347,0.0,-0.3611982,0.2838328,0.011354446,0.0
296687375,296687185,-0.22868502,-0.45599848,-0.18685406,0.0,-0.36235392,0.28493822,0.01228857,0.0
296691868,296691665,-0.23221809,-0.45338482,-0.18825847,0.0,-0.36117625,0.28454542,0.0119508505,0.0
296694889,296694693,-0.23233467,-0.4533323,-0.18879229,0.0,-0.3606826,0.28348053,0.011064887,0.0
296697999,296697712,-0.23160726,-0.45383668,-0.18808883,0.0,-0.36131775,0.28474915,0.012130022,0.0
296702399,296702201,-0.22972685,-0.45528406,-0.18758565,0.0,-0.36167032,0.2813666,0.009303689,0.0
296705463,296705278,-0.2301783,-0.45491552,-0.18736094,0.0,-0.36190373,0.28263736,0.010361671,0.0
296708383,296708158,-0.22791624,-0.45665765,-0.18756044,0.0,-0.36164176,0.28124237,0.009198785,0.0
296712936,296712749,-0.22725356,-0.45715886,-0.1873684,0.0,-0.36178827,0.2806822,0.008728266,0.0
296715865,296715670,-0.2298519,-0.4552297,-0.18768495,0.0,-0.3615412,0.2785443,0.0069429874,0.0
296720384,296720206,-0.2304827,-0.45475847,-0.18774706,0.0,-0.36149693,0.2781347,0.0066034794,0.0
296723397,296723200,-0.2290861,-0.4557981,-0.18761998,0.0,-0.36159086,0.27926326,0.0075461864,0.0
296726428,296726177,-0.22963566,-0.45541024,-0.18764234,0.0,-0.361552,0.27703726,0.005685091,0.0
296729367,296729186,-0.23197544,-0.4536239,-0.18753558,0.0,-0.36171997,0.27759922,0.006157279,0.0
296733910,296733716,-0.23080456,-0.45452076,-0.18807024,0.0,-0.36122304,0.27870083,0.007073641,0.0
296736899,296736687,-0.2300024,-0.45508087,-0.1877011,0.0,-0.36157352,0.28132367,0.009267569,0.0
296741384,296741196,-0.22692025,-0.457362,-0.18645436,0.0,-0.36261547,0.2814622,0.0093899965,0.0
296744376,296744196,-0.22568709,-0.45825517,-0.18572068,0.0,-0.3632568,0.28236628,0.010139704,0.0
296747552,296747372,-0.22552264,-0.45841318,-0.18578231,0.0,-0.36316,0.27992487,0.008097172,0.0
296750377,296750196,-0.22580916,-0.4581861,-0.18629211,0.0,-0.36274624,0.28257596,0.01031363,0.0
296754986,296754797,-0.22542149,-0.45850027,-0.18716443,0.0,-0.36196828,0.284034,0.011525273,0.0
296757909,296757709,-0.22470105,-0.45905668,-0.18716526,0.0,-0.3619368,0.28323174,0.0108600855,0.0
296760917,296760711,-0.22573942,-0.45822018,-0.18677753,0.0,-0.36235142,0.2859404,0.013122797,0.0
296765403,296765218,-0.2286098,-0.4560911,-0.18765187,0.0,-0.36162978,0.28514612,0.0124537945,0.0
296768423,296768222,-0.22983944,-0.45517576,-0.1885792,0.0,-0.36085308,0.28696454,0.013973832,0.0
296771452,296771223,-0.23179162,-0.4536695,-0.18749875,0.0,-0.36185652,0.28530693,0.012595415,0.0
296775996,296775805,-0.2270388,-0.4572754,-0.18777603,0.0,-0.3614903,0.28601956,0.013188124,0.0
296778945,296778741,-0.2246657,-0.45901984,-0.1861754,0.0,-0.36285418,0.28493655,0.012287021,0.0
296781939,296781733,-0.22455955,-0.45913315,-0.18638647,0.0,-0.3626328,0.2830609,0.010715485,0.0
296786450,296786252,-0.22296917,-0.46037227,-0.18779713,0.0,-0.36134964,0.2854619,0.012724638,0.0
296789429,296789241,-0.22383708,-0.4596979,-0.18686771,0.0,-0.36218262,0.2835474,0.0111272335,0.0
296792471,296792292,-0.22506529,-0.4587757,-0.18701172,0.0,-0.36208206,0.28336644,0.010966778,0.0
296797015,296796748,-0.22576731,-0.45822525,-0.18666744,0.0,-0.3624168,0.28365564,0.011215091,0.0
296800002,296799813,-0.22726405,-0.45712292,-0.18696082,0.0,-0.36216855,0.28197742,0.009814024,0.0
296802984,296802768,-0.22741348,-0.45697874,-0.1864779,0.0,-0.36262,0.28277588,0.010484576,0.0
296807489,296807307,-0.22677577,-0.4574523,-0.18600744,0.0,-0.36301517,0.2819264,0.00976944,0.0
296810456,296810263,-0.22694916,-0.45727354,-0.18499321,0.0,-0.36393958,0.2822299,0.010025859,0.0
296813451,296813266,-0.22818083,-0.45632553,-0.18495226,0.0,-0.36402363,0.2831118,0.010761738,0.0
296818063,296817783,-0.22659588,-0.457578,-0.18515581,0.0,-0.363748,0.27976584,0.007963061,0.0
296820959,296820775,-0.22854203,-0.45614177,-0.18605173,0.0,-0.36299115,0.2796601,0.007875204,0.0
296825524,296825308,-0.22965711,-0.45528406,-0.18629831,0.0,-0.36282647,0.28142762,0.009350538,0.0
296828471,296828284,-0.23088825,-0.45435214,-0.18647671,0.0,-0.3627048,0.2818309,0.009688258,0.0
296831488,296831287,-0.23297495,-0.4528076,-0.18734604,0.0,-0.3619774,0.28174758,0.009613872,0.0
296834508,296834286,-0.23350805,-0.45245153,-0.18775946,0.0,-0.3615834,0.27936292,0.007621646,0.0
296839061,296838791,-0.232957,-0.45279747,-0.18672746,0.0,-0.36253142,0.28137255,0.009305477,0.0
296841982,296841796,-0.23187977,-0.4535967,-0.1865673,0.0,-0.36265892,0.28207922,0.009899735,0.0
296845060,296844863,-0.22936165,-0.4555148,-0.18685532,0.0,-0.36233574,0.28240502,0.010165215,0.0
296849516,296849318,-0.22713351,-0.4571883,-0.18709034,0.0,-0.36209488,0.28446174,0.011888504,0.0
296852534,296852352,-0.22792572,-0.45661992,-0.1871512,0.0,-0.36202538,0.28205693,0.009876013,0.0
296855492,296855307,-0.22809958,-0.45655543,-0.18760675,0.0,-0.36156398,0.27833247,0.0067619085,0.0
296860132,296859860,-0.22871643,-0.45610905,-0.18855727,0.0,-0.36074632,0.27998805,0.008150935,0.0
296862997,296862815,-0.22790676,-0.45670557,-0.18900377,0.0,-0.36036354,0.2828449,0.010534525,0.0
296866063,296865828,-0.2282964,-0.4564163,-0.18918914,0.0,-0.36021006,0.2830932,0.010742545,0.0
296870512,296870323,-0.22699946,-0.45739007,-0.18924332,0.0,-0.3601401,0.28414428,0.0116199255,0.0
296873518,296873325,-0.2265271,-0.4577508,-0.18893838,0.0,-0.36038387,0.282943,0.010619044,0.0
296876530,296876331,-0.22674936,-0.4575656,-0.18866771,0.0,-0.36063957,0.28338242,0.010988951,0.0
296881030,296880840,-0.22927046,-0.45555902,-0.1874044,0.0,-0.36189544,0.28670824,0.013767242,0.0
296884026,296883840,-0.23071289,-0.4544618,-0.1874814,0.0,-0.3618731,0.28717625,0.014153361,0.0
296887049,296886867,-0.23042637,-0.45468706,-0.18792248,0.0,-0.36148083,0.28800726,0.014844537,0.0
296891527,296891344,-0.22779667,-0.45667428,-0.18756163,0.0,-0.36172372,0.28726602,0.014225483,0.0
296894541,296894349,-0.2263841,-0.45776415,-0.18718553,0.0,-0.361984,0.2845168,0.011933565,0.0
296897618,296897440,-0.22493571,-0.45883375,-0.18661243,0.0,-0.3624661,0.28487504,0.012233734,0.0
296902057,296901857,-0.226138,-0.45791566,-0.18641669,0.0,-0.3626734,0.28479588,0.012166142,0.0
296905165,296904908,-0.2277832,-0.45669818,-0.18738413,0.0,-0.36185735,0.28569162,0.012912393,0.0
296908076,296907865,-0.22812003,-0.4564559,-0.1873684,0.00039576297,-0.3618648,0.28459215,0.011994123,0.0004338875
296912608,296912416,-0.22932625,-0.4555406,-0.18672329,0.0015942092,-0.36244828,0.28238857,0.010155082,0.0017467255
296915560,296915368,-0.23039901,-0.45477688,-0.18761587,0.00237262,-0.36166,0.2815131,0.009420872,0.0025982158
296918557,296918371,-0.23051357,-0.45462805,-0.18679035,0.0031638378,-0.36243832,0.28350282,0.011092663,0.0034644562
296923083,296922889,-0.23185635,-0.45356494,-0.18624866,0.004356751,-0.36298746,0.28509104,0.012415886,0.004767501
296926070,296925881,-0.23041147,-0.454682,-0.18662977,0.0051419795,-0.3625989,0.2846595,0.012050748,0.005630837
296929135,296928890,-0.22904974,-0.45569998,-0.18593872,0.005930852,-0.3631683,0.28344393,0.011037469,0.0064991377
296933575,296933389,-0.22617936,-0.4579134,-0.18593872,0.0071057235,-0.36304665,0.28048265,0.008562565,0.0077978107
296936683,296936450,-0.22479868,-0.45891112,-0.18577987,0.007905375,-0.36320305,0.28398526,0.01149416,0.008681342
296939583,296939393,-0.22404534,-0.4594782,-0.18605667,0.008675549,-0.36295146,0.28535783,0.012633324,0.009530715
296944177,296943973,-0.2267294,-0.4574799,-0.18544012,0.00989082,-0.36350513,0.28022003,0.008345842,0.010851165
296947084,296946902,-0.2292251,-0.4555503,-0.18433028,0.010673458,-0.36456114,0.27939332,0.0076562166,0.0116951335
296950172,296949984,-0.22896457,-0.45578247,-0.18479085,0.011483477,-0.36412334,0.27827525,0.0067168474,0.012584354
296954602,296954408,-0.2284683,-0.45618552,-0.18626732,0.012645147,-0.36281943,0.2810917,0.009071112,0.013860854
296957663,296957460,-0.22877222,-0.45593125,-0.18609267,0.0134502845,-0.36300564,0.2823869,0.010158896,0.014741132
296960644,296960414,-0.22998047,-0.45501363,-0.18611252,0.014235839,-0.3630222,0.28258014,0.010315537,0.015592638
296965182,296964968,-0.22971141,-0.4551394,-0.18534124,0.015433285,-0.36376333,0.28605032,0.013217449,0.01690643
296968121,296967924,-0.2283771,-0.45613575,-0.1848877,0.016201638,-0.36413282,0.28577757,0.012988329,0.017759979
296971117,296970925,-0.22717881,-0.45706213,-0.18568838,0.016981937,-0.36339712,0.28705,0.014046311,0.01862653
296975652,296975440,-0.22705376,-0.45712847,-0.18569833,0.01816844,-0.36341822,0.28931677,0.015942335,0.019929158
296978649,296978464,-0.2266841,-0.45737028,-0.18459594,0.01896051,-0.36439103,0.28856122,0.015314698,0.020801805
296981630,296981444,-0.22729093,-0.45692068,-0.18526798,0.01974972,-0.36382335,0.29006183,0.016561031,0.021661084
296986140,296985942,-0.22896802,-0.4556318,-0.18476564,0.020949231,-0.36431617,0.28969133,0.01625228,0.022957355
296989124,296988944,-0.23097199,-0.4541306,-0.1844582,0.021759773,-0.3646108,0.28724158,0.014206767,0.023821691
296992205,296991946,-0.2321862,-0.45326596,-0.1851219,0.022563513,-0.36401367,0.28503418,0.0123643875,0.024686638
296996649,296996454,-0.23044634,-0.45459628,-0.18512684,0.023732781,-0.36394912,0.284034,0.0115305185,0.025988575
296999671,296999453,-0.23126447,-0.4540463,-0.18585104,0.024532132,-0.36327255,0.28100002,0.008990049,0.026852988
297002699,297002506,-0.23103976,-0.4541868,-0.18528455,0.02533402,-0.36378402,0.28135443,0.009295344,0.027733827
297007185,297006967,-0.22967106,-0.45513523,-0.18473172,0.02649261,-0.36432278,0.28633738,0.0134551525,0.02902193
297010202,297010013,-0.23072433,-0.45436782,-0.18489558,0.027308095,-0.36417425,0.2843641,0.01180625,0.029899538
297013151,297012967,-0.230959,-0.4541753,-0.1840514,0.02808942,-0.36491698,0.2826513,0.010380864,0.030751368
297017711,297017520,-0.22874182,-0.45579857,-0.18272394,0.029258879,-0.36605537,0.28265965,0.0103827715,0.032067157
297020686,297020481,-0.22943193,-0.45523798,-0.18243885,0.030047912,-0.36635906,0.28454924,0.011961341,0.032920483
297023700,297023477,-0.23013693,-0.45469582,-0.18204367,0.03084688,-0.36672366,0.28378356,0.011319876,0.033783894
297028180,297027984,-0.22966409,-0.45509243,-0.1830914,0.032026924,-0.36577356,0.284199,0.011664987,0.035084657
297031176,297030985,-0.22731882,-0.45689815,-0.18322176,0.03278134,-0.3655687,0.28256202,0.010300159,0.03595339
297034186,297033988,-0.22642398,-0.4575389,-0.18246824,0.033557266,-0.36623037,0.28295314,0.010627627,0.036820844
297038716,297038505,-0.22865313,-0.45585477,-0.18200433,0.034781035,-0.36667812,0.2809347,0.008938551,0.03812102
297041713,297041498,-0.22735125,-0.45685112,-0.18252075,0.03554725,-0.36619276,0.28195715,0.0097949505,0.038986254
297044698,297044499,-0.22566414,-0.45811605,-0.18271196,0.036308084,-0.3660007,0.28372467,0.011269927,0.039854385
297049205,297049006,-0.22623068,-0.4576227,-0.18177885,0.037502605,-0.366885,0.2856816,0.012909055,0.04115376
297052194,297052007,-0.2273801,-0.45675254,-0.18242645,0.03831211,-0.36636364,0.28778708,0.014663458,0.042017855
297056703,297056512,-0.22999191,-0.45475888,-0.18185288,0.03954521,-0.3669384,0.2869115,0.013934374,0.043313477
297059712,297059514,-0.23027843,-0.45460457,-0.18264616,0.040341247,-0.36619562,0.28460026,0.011999369,0.044179123
297062817,297062565,-0.2310831,-0.45396012,-0.18246406,0.041160293,-0.3664133,0.28656554,0.0136448145,0.04505788
297065712,297065520,-0.23239797,-0.4528864,-0.18131912,0.041964594,-0.36751437,0.28858137,0.015331984,0.045907944
297070285,297070075,-0.23033673,-0.45443875,-0.18125659,0.04312423,-0.3675239,0.28904355,0.015714765,0.047225226
297073228,297073032,-0.22856647,-0.4558198,-0.18204284,0.043866966,-0.36676043,0.28857553,0.015321851,0.04808132
297076243,297076045,-0.22799897,-0.45631033,-0.18228656,0.044648178,-0.36646706,0.2847631,0.012137175,0.048951637
297080744,297080536,-0.2284708,-0.45591325,-0.18157649,0.045839936,-0.36713165,0.28545976,0.012724638,0.050246306
297083741,297083539,-0.22791624,-0.45633525,-0.18185496,0.04661823,-0.36687756,0.28630877,0.013426185,0.051113624
297086785,297086562,-0.22558844,-0.45811236,-0.18194562,0.047362205,-0.36672282,0.2856635,0.0128932,0.051990043
297091266,297091080,-0.22824955,-0.45610535,-0.18281788,0.048609942,-0.3660388,0.28786457,0.014725447,0.053288523
297094236,297094051,-0.2286048,-0.45580822,-0.18286669,0.049399946,-0.36603963,0.2901678,0.016655684,0.054144863
297097248,297097052,-0.22907764,-0.455454,-0.18312407,0.050200872,-0.36582732,0.29064226,0.017050028,0.055009678
297101776,297101566,-0.22994906,-0.45479113,-0.18261844,0.05141006,-0.36628503,0.28913116,0.015788436,0.056310106
297104776,297104564,-0.23023456,-0.4545539,-0.18200517,0.052206565,-0.3668391,0.28867102,0.015407562,0.057174303
297107802,297107611,-0.23083746,-0.45406336,-0.18119413,0.053023994,-0.3675856,0.28846347,0.015230656,0.058051907
297112278,297112068,-0.23015088,-0.4545806,-0.18134022,0.05418098,-0.36744612,0.2890823,0.015743732,0.059339
297115318,297115119,-0.22827649,-0.45598787,-0.1810435,0.054936625,-0.36766422,0.2890966,0.015757918,0.060223073
297118322,297118074,-0.226417,-0.45740438,-0.1810435,0.055666026,-0.3676067,0.2886201,0.015360951,0.061079584
297122842,297122639,-0.22742397,-0.45668113,-0.18087304,0.05689299,-0.36773205,0.28498912,0.012328386,0.06239449
297125793,297125581,-0.2307418,-0.45414764,-0.18050969,0.057756044,-0.3681525,0.28513396,0.012452245,0.06323572
297128787,297128586,-0.23299086,-0.45246857,-0.18073857,0.058609005,-0.3679878,0.2838509,0.011378884,0.0640975
297133316,297133104,-0.23540038,-0.45067072,-0.18130338,0.05986754,-0.36753672,0.28337657,0.01097548,0.06539514
297136282,297136096,-0.23575366,-0.45036715,-0.18064088,0.06066748,-0.36815208,0.28380215,0.011337519,0.06625713
297139284,297139095,-0.23503315,-0.45090514,-0.17953771,0.061438896,-0.36908185,0.28084338,0.008869767,0.067123756
297143812,297143610,-0.23337251,-0.4521687,-0.17918432,0.0625825,-0.36933386,0.27929354,0.0075736046,0.06842999
297146814,297146605,-0.23075771,-0.45412827,-0.1782996,0.063295536,-0.37004268,0.2781124,0.006586194,0.06930019
297149832,297149605,-0.22823411,-0.4560197,-0.17813408,0.06401069,-0.37014204,0.27923834,0.007528901,0.07017178
297152879,297152698,-0.22772443,-0.45640385,-0.17820281,0.064809225,-0.37007123,0.27958477,0.007816672,0.071065344
297157299,297157113,-0.2210235,-0.45530522,-0.17661089,0.065764815,-0.3651607,0.28264534,0.010366917,0.072335295
297160402,297160214,-0.21877193,-0.45695478,-0.17531115,0.06650807,-0.36627382,0.28285122,0.010547996,0.07323551
297164852,297164633,-0.22121829,-0.45506984,-0.17515063,0.06774324,-0.36651134,0.28483844,0.012204409,0.07450379
297167908,297167709,-0.22462434,-0.45249528,-0.17583835,0.06865918,-0.36600816,0.28652465,0.013612151,0.07538204
297170820,297170630,-0.22588986,-0.4515229,-0.17529589,0.069467574,-0.36651838,0.28564703,0.012879729,0.07622109
297175432,297175250,-0.2265839,-0.4510314,-0.176013,0.070704885,-0.3658865,0.28527248,0.012564659,0.077551834
297178319,297178135,-0.2273308,-0.45045787,-0.1757713,0.07148839,-0.36612153,0.28498912,0.012328386,0.07838181
297181368,297181143,-0.22660881,-0.4509862,-0.17544025,0.07225532,-0.36640584,0.28528464,0.012572885,0.079251304
297185860,297185657,-0.22528696,-0.45202267,-0.17559832,0.073397025,-0.36619645,0.2832116,0.010841012,0.080557115
297188852,297188645,-0.22265625,-0.45401913,-0.17514646,0.074091256,-0.36650765,0.28151095,0.00942421,0.08142657
297191875,297191675,-0.22212714,-0.45438576,-0.17478192,0.07486802,-0.36684364,0.28300786,0.010677576,0.082302004
297194844,297194651,-0.22134686,-0.45500487,-0.17597121,0.07562138,-0.36577767,0.2849344,0.0122817755,0.08316287
297199347,297199165,-0.22099906,-0.4552421,-0.17525572,0.07679296,-0.3664087,0.28466547,0.01205945,0.08446594
297202340,297202159,-0.22292131,-0.45375472,-0.17449474,0.07764787,-0.36714363,0.28452277,0.01193881,0.0853237
297205522,297205329,-0.22563529,-0.45172048,-0.17478025,0.07857949,-0.36694586,0.2836678,0.011223316,0.08622988
297209891,297209669,-0.22735322,-0.45046574,-0.1753993,0.07978403,-0.36640954,0.28206325,0.009884715,0.087476514
297213006,297212816,-0.22906023,-0.4491759,-0.17600471,0.080675974,-0.3659345,0.28356767,0.011139631,0.088378794
297215858,297215672,-0.22918624,-0.4490801,-0.17518991,0.08143263,-0.36663216,0.28090227,0.008919716,0.089202024
297224909,297224686,-0.22984993,-0.4485941,-0.17471528,0.0838316,-0.3670348,0.2779739,0.0064690113,0.09179948
297227924,297227734,-0.2285595,-0.44953156,-0.17390054,0.08458349,-0.36774158,0.27833045,0.006772518,0.09268255
297230886,297230686,-0.22754204,-0.4502796,-0.17348135,0.08531997,-0.3680995,0.27868652,0.007066965,0.09353715
297233920,297233736,-0.2249462,-0.45219678,-0.17284286,0.08601818,-0.36863208,0.28032982,0.008442402,0.09442527
297236922,297236731,-0.2234425,-0.45328856,-0.17216837,0.086744234,-0.36922175,0.28176355,0.00963974,0.09529398
297241382,297241198,-0.22413653,-0.4527362,-0.17187792,0.087945625,-0.3695184,0.28279603,0.0104961395,0.096579984
297244420,297244200,-0.22600394,-0.45133632,-0.17242414,0.08881142,-0.36908436,0.28330326,0.010918736,0.09743949
297247384,297247203,-0.2267912,-0.45074487,-0.17294055,0.08963373,-0.36866063,0.28453112,0.011947513,0.09830288
297251909,297251708,-0.22568709,-0.45150447,-0.17177898,0.09077172,-0.36971045,0.28652894,0.013620734,0.09960573
297254977,297254782,-0.22657144,-0.45086002,-0.17186344,0.091617465,-0.369631,0.2847997,0.012167931,0.1004893
297257949,297257767,-0.22683257,-0.450661,-0.17207402,0.09241362,-0.36946088,0.28552663,0.012777925,0.10134929
297262393,297262219,-0.22613847,-0.45121336,-0.17244107,0.093554154,-0.3690976,0.28468776,0.012074828,0.102635935
297265449,297265269,-0.22504234,-0.45200795,-0.17210257,0.09430778,-0.36940008,0.2862885,0.013417244,0.103519455
297268508,297268253,-0.22430992,-0.45257223,-0.17208606,0.095059365,-0.36938435,0.28561628,0.012855649,0.1043829
297272969,297272785,-0.22623765,-0.4511972,-0.17401767,0.09633635,-0.36769068,0.28541303,0.012681365,0.1056833
297276051,297275858,-0.22548729,-0.45174032,-0.17397833,0.09711031,-0.3677333,0.28715396,0.014139533,0.10657233
297278925,297278736,-0.2263627,-0.45107746,-0.1739949,0.097906634,-0.36774075,0.28713548,0.01412034,0.10739906
297283439,297283258,-0.2260508,-0.45133263,-0.17368329,0.09908122,-0.3679762,0.28473866,0.012117982,0.1087046
297286437,297286243,-0.17420483,-0.41348857,-0.12743437,0.097451776,-0.33146352,0.28625572,0.013407111,0.10937136
297289431,297289246,-0.17421478,-0.4132241,-0.12712032,0.09822261,-0.33155376,0.28896236,0.01564908,0.110234566
297293949,297293761,-0.17472798,-0.41281044,-0.12600178,0.09940523,-0.33254975,0.28752267,0.014446378,0.11153231
297297016,297296758,-0.1745416,-0.41294128,-0.1256389,0.10016532,-0.3328663,0.2874347,0.0143738985,0.11239582
297299987,297299796,-0.1745162,-0.41291827,-0.12405819,0.10094358,-0.33425915,0.28539026,0.012671232,0.11327035
297304471,297304285,-0.17463577,-0.41284454,-0.123592675,0.10210116,-0.3346411,0.28267193,0.010393262,0.11456233
297307486,297307266,-0.17286551,-0.41423202,-0.12480259,0.102779016,-0.3335089,0.2834822,0.011075377,0.11542808
297311952,297311769,-0.17156011,-0.41527492,-0.1259306,0.103868574,-0.33245128,0.28359628,0.011165142,0.11673029
297314964,297314773,-0.17102599,-0.4156918,-0.12581354,0.10461151,-0.33252287,0.28230953,0.010093093,0.11759755
297318088,297317909,-0.17320383,-0.4140473,-0.12542415,0.105524585,-0.332906,0.28045654,0.008547187,0.11849136
297320959,297320778,-0.17316997,-0.4141233,-0.1269399,0.10625853,-0.33155453,0.2819593,0.009793043,0.11931783
297325546,297325367,-0.17636323,-0.4116888,-0.12708676,0.107599184,-0.3315314,0.28396297,0.011475325,0.12062532
297328465,297328287,-0.17515343,-0.4125889,-0.12709463,0.10828644,-0.33151233,0.2856003,0.012841821,0.12147102
297331503,297331314,-0.17369711,-0.41366082,-0.12627327,0.10898744,-0.33221167,0.2855637,0.012812495,0.12234867
297335973,297335794,-0.17447138,-0.4130003,-0.12483281,0.11017721,-0.3335445,0.2867651,0.0138190985,0.12363466
297339102,297338799,-0.17358398,-0.41363412,-0.12470245,0.11090113,-0.33367693,0.2897911,0.016342044,0.12450351
297341977,297341800,-0.17549324,-0.41218954,-0.12505585,0.11177266,-0.33342284,0.29089904,0.017267466,0.12535907
297346585,297346365,-0.17199308,-0.41478205,-0.123036504,0.11275566,-0.3351215,0.2887931,0.0155130625,0.1266887
297349489,297349309,-0.17326313,-0.41386122,-0.123256266,0.11357909,-0.33491832,0.28599513,0.013172746,0.1275308
297352492,297352310,-0.17199558,-0.41481793,-0.123675406,0.114279255,-0.33453226,0.28801358,0.014858007,0.12840062
297357003,297356820,-0.17273998,-0.4143011,-0.12500829,0.11547614,-0.3333612,0.289052,0.01572156,0.129696
297360004,297359819,-0.17452914,-0.41294038,-0.12441409,0.11634439,-0.33392107,0.28721297,0.014191389,0.13055116
297363054,297362869,-0.17642897,-0.4114958,-0.12412852,0.11723325,-0.33421856,0.28642917,0.013534784,0.13142034
297367591,297367405,-0.17707968,-0.41095912,-0.123725474,0.118434876,-0.33463115,0.28865457,0.015393972,0.13272284
297370595,297370416,-0.17528701,-0.41227615,-0.12363362,0.11910638,-0.3347106,0.29188025,0.018090844,0.1335979
297373522,297373331,-0.17385703,-0.41335636,-0.12375325,0.119772695,-0.3345757,0.29273176,0.018795848,0.13444392
297378069,297377884,-0.17269409,-0.41429096,-0.124819994,0.120873295,-0.33357304,0.29223883,0.018380404,0.13576072
297381032,297380839,-0.17178833,-0.41495985,-0.123836815,0.12157814,-0.33440685,0.2901392,0.016631246,0.13661581
297384028,297383843,-0.17020738,-0.41615152,-0.12365806,0.12225531,-0.3345248,0.2901678,0.016659021,0.13748844
297388611,297388346,-0.1722188,-0.41468436,-0.12445009,0.12352708,-0.33383667,0.28820884,0.015019894,0.1387755
297391543,297391349,-0.17342305,-0.41376632,-0.12429905,0.12436835,-0.3340034,0.28808677,0.014918447,0.1396341
297394561,297394378,-0.1752187,-0.41242903,-0.12483698,0.12525249,-0.3335656,0.28802156,0.014861345,0.1404974
297399037,297398857,-0.17485702,-0.41275012,-0.1250807,0.12638022,-0.33329332,0.28491592,0.012269378,0.14178899
297402091,297401865,-0.17678171,-0.41128296,-0.12479019,0.127269,-0.333602,0.28453326,0.011952758,0.14264517
297405052,297404863,-0.17821372,-0.41019267,-0.12493795,0.12812656,-0.33352053,0.28541303,0.01268518,0.14350088
297409653,297409367,-0.17798448,-0.41037458,-0.12498301,0.12927,-0.33346713,0.28485274,0.012221336,0.14479868
297412558,297412371,-0.17812252,-0.41025436,-0.12405902,0.1300506,-0.33427447,0.2826761,0.01039958,0.14566258
297415617,297415425,-0.17816138,-0.41022766,-0.12370813,0.1308379,-0.33457112,0.28112626,0.009105682,0.14654152
297420054,297419878,-0.17645186,-0.41149122,-0.12286687,0.13187483,-0.33528042,0.2807293,0.008774757,0.14783217
297423117,297422930,-0.17704082,-0.41105545,-0.12342179,0.1326959,-0.33481115,0.2818452,0.009703636,0.14870778
297426109,297425916,-0.17853159,-0.40994895,-0.12350577,0.13355787,-0.3347503,0.28001833,0.008180261,0.1495596
297430715,297430436,-0.17760181,-0.4105211,-0.12133956,0.13466007,-0.33672702,0.28322375,0.010865331,0.15086478
297433616,297433392,-0.17657894,-0.41123784,-0.12117237,0.13535357,-0.33691072,0.28747344,0.0144099,0.15172079
297436651,297436464,-0.17649275,-0.4112544,-0.1210379,0.13613687,-0.33707958,0.29099667,0.017351627,0.15260531
297441090,297440900,-0.17873585,-0.4096256,-0.12223333,0.13742305,-0.33603722,0.28921068,0.015848875,0.15387055
297444149,297443951,-0.17808914,-0.41010237,-0.12155014,0.13816483,-0.33661819,0.28794622,0.014808059,0.15475227
297447083,297446906,-0.17499155,-0.41244012,-0.122196496,0.138719,-0.33599627,0.29115164,0.01748085,0.15561995
297451699,297451443,-0.17246342,-0.41430575,-0.121617615,0.13971443,-0.33648205,0.29350758,0.019450545,0.15693983
297454609,297454414,-0.17006439,-0.4161151,-0.121439695,0.14031479,-0.3365785,0.29370117,0.019605994,0.15780866
297457664,297457471,-0.1700843,-0.41611004,-0.12163001,0.14109884,-0.3364051,0.29374373,0.019640207,0.15868887
297462114,297461929,-0.17021435,-0.41602528,-0.121619284,0.14224905,-0.33640134,0.29261935,0.018706083,0.1599719
297465153,297464924,-0.17058855,-0.4157554,-0.1217438,0.14304149,-0.33629006,0.2920617,0.018232465,0.16083224
297468162,297467976,-0.17248285,-0.41435456,-0.1226753,0.14395346,-0.33550674,0.2925626,0.018656492,0.16170038
297472617,297472431,-0.17244297,-0.41437113,-0.12212247,0.1450926,-0.33599252,0.291703,0.017941356,0.1629832
297475665,297475483,-0.17245096,-0.4143799,-0.1222077,0.14587542,-0.33590275,0.29076433,0.01715517,0.16386196
297478641,297478438,-0.17479372,-0.41258842,-0.12191594,0.14679715,-0.33623296,0.29102492,0.017374158,0.16469899
297483175,297482990,-0.17613798,-0.41157734,-0.121231556,0.14806017,-0.3368408,0.2877345,0.014622092,0.16600157
297486119,297485945,-0.17622072,-0.4115672,-0.12117237,0.14882483,-0.33683336,0.28315854,0.010802984,0.16685216
297489173,297488988,-0.1745969,-0.4127893,-0.12131184,0.14949024,-0.3366819,0.2843927,0.0118352175,0.16773786
297493643,297493453,-0.17706525,-0.41083938,-0.12022394,0.1508135,-0.33776486,0.2868955,0.0139273405,0.16900787
297496674,297496456,-0.17683256,-0.4110204,-0.119831264,0.15156806,-0.3380884,0.28510737,0.012433529,0.16987377
297499647,297499459,-0.17908311,-0.40930593,-0.11945635,0.15250301,-0.3384778,0.2843337,0.011781812,0.17072451
297504162,297503966,-0.18052155,-0.40826672,-0.12087566,0.1537673,-0.33724838,0.28505862,0.012390375,0.1720135
297507146,297506967,-0.18165559,-0.40746427,-0.1210714,0.15462296,-0.33704525,0.2809776,0.008979917,0.17287078
297510153,297509970,-0.1812256,-0.40775168,-0.12091333,0.1553642,-0.3372128,0.28337657,0.010988951,0.1737375
297514663,297514474,-0.17847425,-0.40973985,-0.11953372,0.15631844,-0.33842814,0.28625572,0.013393164,0.17505021
297517658,297517477,-0.1750822,-0.41232908,-0.119482815,0.15683629,-0.33836073,0.2846595,0.0120579,0.175936
297520739,297520561,-0.17416143,-0.41303158,-0.11939591,0.15755844,-0.33840412,0.28398943,0.011500955,0.17682967
297525191,297524988,-0.17393726,-0.41315365,-0.11912614,0.15867712,-0.3386835,0.28700542,0.014017105,0.17810525
297528261,297528077,-0.17392826,-0.41315734,-0.11928588,0.15946874,-0.3385498,0.28787887,0.014744163,0.17899464
299583775,299583573,-0.018233836,-0.25209177,-0.04305893,0.48136207,-0.1140331,0.09718728,-0.27901894,0.571098
299586784,299586587,-0.0063635707,-0.2685473,-0.06398803,0.4823243,-0.09453374,0.10483611,-0.26619554,0.57188964
299589765,299589579,-0.0099051595,-0.27037287,-0.06645632,0.4820372,-0.09862453,0.10132885,-0.27199066,0.5719514
299592952,299592636,-0.0034877062,-0.279231,-0.0891552,0.48255733,-0.07786226,0.09764063,-0.27827972,0.5721906
299597280,299597087,-0.013954401,-0.2645471,-0.05464697,0.481709,-0.10957199,0.084219694,-0.30039436,0.5716973
299600484,299600279,-0.019336939,-0.2573219,-0.048039854,0.48127267,-0.11569822,0.084044576,-0.30089843,0.5713497
299603276,299603097,-0.02576977,-0.24865127,-0.040055215,0.48075143,-0.123135865,0.07626748,-0.3138011,0.5709324
299607904,299607711,-0.035114884,-0.23735303,-0.055128217,0.4799939,-0.10978961,0.08211672,-0.30426645,0.5703889
299610790,299610601,-0.07141113,-0.31034374,-0.14817476,0.48786363,-0.12521434,0.08428621,-0.30066293,0.57303107
299613797,299613606,-0.066783905,-0.31364423,-0.13576329,0.4867292,-0.13651597,0.08913112,-0.29234374,0.5731202
299616796,299616606,-0.05720961,-0.32159495,-0.15165395,0.48438212,-0.12191635,0.08030033,-0.3072307,0.573335
299621381,299621111,-0.062781036,-0.31489164,-0.09441954,0.48574808,-0.17370975,0.07445574,-0.31667554,0.5731539
299624298,299624114,-0.0739283,-0.30668807,-0.0978325,0.48848075,-0.17080784,0.07148433,-0.3219595,0.57293236
299628851,299628666,-0.08159578,-0.3008545,-0.09430325,0.49036038,-0.17404413,0.075865865,-0.31449896,0.5727747
299631828,299631622,-0.08670831,-0.2987042,-0.13216203,0.4916136,-0.13992071,0.081008434,-0.3062436,0.5727166
299634832,299634625,-0.079438865,-0.31440014,-0.15725428,0.48983166,-0.12627655,0.08264494,-0.30331278,0.57314056
299637883,299637698,-0.084395945,-0.30965185,-0.13405764,0.4910469,-0.14732397,0.08131778,-0.30531514,0.57301235
299642329,299642135,-0.069943786,-0.32077175,-0.13620853,0.4875039,-0.14491528,0.07328892,-0.3188315,0.5733127
299645381,299645201,-0.08517867,-0.30806816,-0.10907334,0.4912387,-0.16977787,0.06845915,-0.3267905,0.5729697
299648325,299648138,-0.09069127,-0.30416423,-0.11337769,0.49259007,-0.16593742,0.06776464,-0.32818174,0.5728642
299652883,299652702,-0.10241598,-0.2955907,-0.118187666,0.49546432,-0.16178662,0.06670129,-0.3298415,0.5726327
299655849,299655645,-0.1031245,-0.2897051,-0.13169646,0.49563792,-0.14337718,0.06817961,-0.32753193,0.57247347
299658836,299658649,-0.09046608,-0.29995024,-0.14598244,0.49253494,-0.13007772,0.07132733,-0.32223558,0.5727503
299663451,299663153,-0.085972905,-0.30325907,-0.14361554,0.49143338,-0.13208503,0.067382336,-0.32877517,0.5728397
299666338,299666157,-0.06734395,-0.3173455,-0.14274156,0.48686662,-0.13237762,0.06591213,-0.33116138,0.57322013
299669360,299669180,-0.06471121,-0.31813318,-0.11593038,0.48622122,-0.15654916,0.060213923,-0.34059083,0.5732414
299673850,299673664,-0.07904625,-0.30701512,-0.108876765,0.48973528,-0.16323036,0.053905845,-0.35131425,0.57294106
299676869,299676667,-0.095397174,-0.29433548,-0.101261675,0.49374378,-0.17048585,0.051834464,-0.3546368,0.57259864
299679861,299679670,-0.16760904,-0.32406628,-0.17199373,0.5114463,-0.19181919,0.060716987,-0.34002554,0.57340175
299684358,299684175,-0.13395745,-0.35036713,-0.18902194,0.50319666,-0.17550069,0.075550556,-0.31502366,0.5741122
299687368,299687177,-0.13172233,-0.35239536,-0.19587982,0.50264865,-0.1692056,0.07325399,-0.31905913,0.5741671
299690403,299690229,-0.106600285,-0.37093437,-0.18440813,0.49649018,-0.17889756,0.06437647,-0.33369553,0.5746678
299694895,299694686,-0.13425094,-0.34864432,-0.15245587,0.50326866,-0.20839679,0.049453616,-0.35875416,0.5740657
299697927,299697741,-0.14864779,-0.33788234,-0.15419298,0.50679797,-0.20712847,0.051753163,-0.354846,0.573775
299700883,299700692,-0.17901987,-0.31514227,-0.15895373,0.51424366,-0.20355284,0.05744922,-0.3453681,0.5731607
299705435,299705244,-0.14615804,-0.3418821,-0.20098567,0.5061877,-0.16474319,0.076708555,-0.31336087,0.573883
299708390,299708200,-0.1384626,-0.34742314,-0.19380957,0.5043012,-0.17099446,0.07620895,-0.31395435,0.57403266
299713004,299712823,-0.122482836,-0.35946023,-0.19157714,0.5003838,-0.17255324,0.06256151,-0.33685172,0.5743579
299715892,299715707,-0.13368642,-0.34977108,-0.1641432,0.5031302,-0.19761819,0.05444634,-0.3501709,0.574096
299718917,299718713,-0.16259319,-0.3275432,-0.15506446,0.5102166,-0.20648628,0.05344534,-0.35201246,0.5734956
299721896,299721713,-0.16641325,-0.32497746,-0.16214412,0.5111532,-0.20017588,0.064100385,-0.33423793,0.5734264
299726432,299726218,-0.19636929,-0.30281174,-0.17198879,0.51849663,-0.19195741,0.071496606,-0.321949,0.5728276
299729403,299729225,-0.16344416,-0.32916516,-0.2019701,0.51042527,-0.16391766,0.07301998,-0.31949145,0.5735395
299732442,299732224,-0.16470277,-0.32771134,-0.18892097,0.5107339,-0.17564803,0.0645529,-0.3334375,0.5735002
299736916,299736730,-0.15422714,-0.33610886,-0.19733888,0.5081657,-0.16766459,0.056040764,-0.34775168,0.573727
299739906,299739733,-0.1827308,-0.3130675,-0.1636905,0.5151533,-0.19876069,0.054789424,-0.34955716,0.5731046
299742995,299742783,-0.19286215,-0.30820912,-0.15734905,0.5176372,-0.20773965,0.05945456,-0.34200007,0.57297343
299747424,299747239,-0.21674907,-0.28978205,-0.14618272,0.5234929,-0.21826047,0.063038826,-0.33590293,0.5724757
299750473,299750290,-0.21677047,-0.29104924,-0.17125803,0.5234982,-0.19540519,0.06163335,-0.33851147,0.57250994
299753434,299753245,-0.19853514,-0.30635273,-0.20343119,0.51902777,-0.16578889,0.06280768,-0.3365013,0.57292324
299757978,299757797,-0.19670957,-0.30684376,-0.18173867,0.5185802,-0.18525887,0.067412734,-0.32876503,0.5729365
299760944,299760770,-0.17586994,-0.32205695,-0.16788638,0.5134714,-0.19718659,0.07107985,-0.32239407,0.5733475
299763949,299763761,-0.21817505,-0.28769302,-0.11021912,0.5238424,-0.25010926,0.06312513,-0.33557016,0.5724192
299768446,299768260,-0.23056692,-0.27838755,-0.102194786,0.52688026,-0.25717193,0.0585773,-0.34332746,0.5721678
299771455,299771269,-0.2658766,-0.25071585,-0.100928545,0.53553635,-0.25906217,0.061224103,-0.33902305,0.5710319
299774452,299774266,-0.24315262,-0.27040738,-0.13457817,0.5299657,-0.22810304,0.07040048,-0.32389534,0.5719522
299778968,299778772,-0.24430954,-0.2692148,-0.12876803,0.5302492,-0.23345262,0.08362663,-0.3015223,0.5719201
299781989,299781803,-0.21774006,-0.28836232,-0.10317427,0.5237358,-0.2557034,0.0852859,-0.29867828,0.5724372
299784959,299784777,-0.22673142,-0.27943182,-0.051719308,0.5259399,-0.3022341,0.08657813,-0.29630256,0.572196
299789486,299789281,-0.22900939,-0.27669334,-0.017648458,0.5264985,-0.33248848,0.08169246,-0.30480093,0.57212204
299792460,299792285,-0.24398965,-0.26460516,-0.0070598125,0.5301708,-0.34247094,0.089316726,-0.29195237,0.5717
299795546,299795336,-0.2443828,-0.26525968,-0.03194475,0.5302672,-0.32021606,0.100871325,-0.2728606,0.5717315
299799981,299799792,-0.21825725,-0.28590757,-0.053328574,0.5238626,-0.3005727,0.11876428,-0.24270773,0.572371
299803024,299802849,-0.2090013,-0.2925201,-0.04318601,0.5215937,-0.30943418,0.12184727,-0.23764384,0.57254964
299805985,299805798,-0.19980717,-0.29875904,-0.018666804,0.51933956,-0.330926,0.11228573,-0.25346452,0.5727182
299810530,299810350,-0.23374474,-0.27088094,0.040409803,0.5276593,-0.3846547,0.10608208,-0.26395768,0.5719651
299813486,299813306,-0.23993593,-0.26631963,0.03427279,0.52917707,-0.37925923,0.1106534,-0.2562853,0.5717825
299816508,299816309,-0.2640341,-0.24768806,0.010522485,0.5350846,-0.3588987,0.12573624,-0.23125261,0.5708862
299821024,299820814,-0.22417891,-0.2803877,-0.029784322,0.5253143,-0.32198465,0.14504099,-0.19894117,0.5722218
299824027,299823817,-0.1666798,-0.23174703,0.0358001,0.5112185,-0.29011065,0.14452624,-0.19964695,0.5701193
299827005,299826820,-0.13119519,-0.25964445,0.05185342,0.50251955,-0.30345976,0.1388222,-0.20917106,0.5714613
299831506,299831324,-0.14567274,-0.24602002,0.092707634,0.5060687,-0.34810233,0.12897491,-0.22558743,0.57080597
299834504,299834329,-0.12582159,-0.26184773,0.09033322,0.50120217,-0.3449111,0.140244,-0.20690769,0.5715673
299837521,299837331,-0.14792627,-0.24465698,0.0794152,0.5066211,-0.3321823,0.14689648,-0.19586688,0.5707404
299842019,299841836,-0.105727315,-0.27944428,0.043047786,0.49627623,-0.2953059,0.16056919,-0.17305177,0.5721964
299845047,299844842,-0.035094976,-0.24683493,0.08850217,0.47999546,-0.25456005,0.15920913,-0.17511791,0.5708451
299848062,299847889,-0.0121561885,-0.2750548,0.10207939,0.48185468,-0.27016562,0.15934634,-0.17491627,0.57207775
299852564,299852379,-0.014007688,-0.27104354,0.12936473,0.4817047,-0.30405313,0.15774596,-0.17749137,0.5719695
299855589,299855399,-0.012655973,-0.27251208,0.13062596,0.48181427,-0.30568105,0.16304553,-0.16882664,0.5720091
299858536,299858352,-0.017454565,-0.26671165,0.12488413,0.48142523,-0.29895473,0.17012942,-0.15685248,0.5718013
299863092,299862905,-0.020901442,-0.26370323,0.09903467,0.48114586,-0.26737744,0.17671359,-0.14604944,0.5716566
299866049,299865859,-0.006849408,-0.28213906,0.08208752,0.48228484,-0.24597085,0.18096972,-0.1388529,0.57226914
299869055,299868863,0.03175676,-0.22744095,0.13596559,0.485414,-0.21221697,0.19038045,-0.123042345,0.5699119
299873579,299873400,0.034371972,-0.23007536,0.14586115,0.48562595,-0.22446579,0.1880914,-0.12671989,0.57003874
299876557,299876370,0.0066201687,-0.19268638,0.16699135,0.48337656,-0.25180584,0.18358326,-0.13427472,0.5682399
299879557,299879373,0.0029536486,-0.188003,0.16559029,0.48307937,-0.25024867,0.17947328,-0.14127702,0.56801474
299884089,299883883,-0.016699195,-0.16240788,0.16519344,0.48148665,-0.2507469,0.18753111,-0.1279068,0.5667832
299887060,299886880,-0.0034179688,-0.18101597,0.14181793,0.48256293,-0.22142601,0.19445968,-0.11640024,0.5676785
299890072,299889884,-0.0037487745,-0.18032414,0.14465618,0.48253623,-0.22503972,0.20206177,-0.10343897,0.56764513
299894592,299894389,0.010558367,-0.19839603,0.15214384,0.4836959,-0.23368436,0.19969738,-0.10740048,0.5685146
299897566,299897392,-0.0041438937,-0.1774391,0.18282163,0.48250422,-0.2721274,0.18973851,-0.12389648,0.56750643
299900651,299900442,-0.009810448,-0.16923183,0.19636726,0.48204476,-0.2890898,0.18978858,-0.12402457,0.56711155
299905093,299904899,-0.011934519,-0.16657299,0.19346988,0.48187268,-0.28569835,0.19695878,-0.112057924,0.5669835
299908150,299907950,0.00065767765,-0.18436807,0.1675595,0.4828934,-0.25336665,0.21139717,-0.08809155,0.56783974
299911086,299910905,0.015200019,-0.20413798,0.15216911,0.48407206,-0.23381722,0.217744,-0.077362895,0.568791
299915670,299915475,0.08574569,-0.16727686,0.20517242,0.4910765,-0.17625093,0.22247148,-0.069396436,0.56701744
299918589,299918413,0.086658955,-0.1675781,0.21963632,0.4914799,-0.2068417,0.21955276,-0.07409704,0.567032
299921626,299921448,0.08250213,-0.15835929,0.22500002,0.48964387,-0.21851164,0.21499324,-0.08184081,0.5665884
299926110,299925920,0.074551105,-0.14751482,0.2271936,0.48888248,-0.22355253,0.22127223,-0.0713653,0.5660667
299929134,299928952,0.07014406,-0.14330733,0.2128973,0.4885253,-0.19351125,0.2226659,-0.06925553,0.5658643
299932109,299931926,0.07611656,-0.1516118,0.20756221,0.48900947,-0.18198574,0.22823441,-0.05978781,0.56626374
299936667,299936441,0.07441354,-0.15007603,0.20067906,0.4888714,-0.16805273,0.2195965,-0.07429874,0.56618994
299939619,299939434,0.07819581,-0.15434706,0.20666587,0.489178,-0.18006736,0.21801126,-0.07675403,0.56639546
299942616,299942438,0.06995571,-0.14288628,0.21364868,0.48851004,-0.19522065,0.21849287,-0.0760532,0.565844
299947162,299946942,0.062230468,-0.13208055,0.22081232,0.48788393,-0.2107302,0.21583843,-0.08044207,0.5653241
299950132,299949945,0.056807995,-0.124991715,0.22129071,0.48744446,-0.21197987,0.21557117,-0.0809713,0.5649831
299953180,299952996,0.05985427,-0.13305205,0.21262038,0.4876914,-0.1965779,0.2159096,-0.08044696,0.56537086
299957660,299957452,0.069818735,-0.14743423,0.19749117,0.48849902,-0.1674813,0.219841,-0.07386416,0.5660628
299960679,299960503,0.07701242,-0.15685344,0.19594848,0.489082,-0.16527867,0.22027922,-0.073106945,0.5665159
299963641,299963459,0.08466196,-0.16854179,0.19817138,0.49059805,-0.16765052,0.21781218,-0.077117264,0.56707835
299968203,299968012,0.0847342,-0.16688114,0.21593201,0.49062958,-0.20254403,0.20728838,-0.09475398,0.56699836
299971160,299970966,0.083452225,-0.16383266,0.21947956,0.4900636,-0.21015501,0.19882178,-0.10885328,0.56685174
299974209,299974025,0.07690179,-0.15490955,0.21414566,0.4890732,-0.19918936,0.20026934,-0.10665637,0.56642246
299978700,299978473,0.105795145,-0.12514925,0.20871913,0.49993253,-0.10258788,0.20929372,-0.091546714,0.56499064
299981654,299981476,0.110958934,-0.136599,0.20196176,0.5022138,-0.08790219,0.21863759,-0.07594353,0.56554157
299984663,299984481,0.11543119,-0.1459353,0.20028138,0.5041891,-0.08497834,0.21161902,-0.08756721,0.5659907
299989178,299988983,0.118962765,-0.15096825,0.22111607,0.505749,-0.12805796,0.20005977,-0.106751025,0.5662329
299992166,299991988,0.112164736,-0.1367436,0.22180176,0.5027462,-0.13004792,0.1876595,-0.12762547,0.5655485
299995209,299995015,0.10804522,-0.12855893,0.2185762,0.5009267,-0.123506606,0.19102526,-0.12200385,0.5651547
299999686,299999495,0.10046983,-0.11533296,0.1918801,0.4975803,-0.07578951,0.20102584,-0.10543156,0.56451833
300002692,300002498,0.10449064,-0.12445599,0.17923605,0.4993564,-0.059913337,0.20384312,-0.10063326,0.56495726
300005748,300005550,0.10610747,-0.12727785,0.18760347,0.50007063,-0.070130825,0.20576382,-0.09731895,0.5650931
300010215,300010005,0.107747674,-0.12983537,0.19898045,0.5007953,-0.0841946,0.18877077,-0.12575042,0.565216
300013236,300013056,0.10462475,-0.122241676,0.21026134,0.4994158,-0.10628432,0.18736994,-0.12801158,0.5648507
300016232,300016049,0.09968555,-0.11303663,0.20393479,0.49723408,-0.09285414,0.27226186,0.000518322,0.564408
300020764,300020564,0.08893347,-0.09272462,0.199597,0.49248478,-0.08582866,0.28824544,0.015085578,0.5639204
300023708,300023519,0.09047449,-0.09639269,0.18760216,0.49316534,-0.070917904,0.29002726,0.01650536,0.5640064
300026710,300026522,0.09397864,-0.10328251,0.18513477,0.49471322,-0.06763029,0.28993547,0.016486645,0.56416804
300031218,300031027,0.10043943,-0.11613542,0.18211567,0.49756703,-0.06346786,0.28726387,0.014201522,0.56455696
300034217,300034030,0.103386045,-0.122477055,0.17824912,0.49886864,-0.058499396,0.28508508,0.012417793,0.56486213
300037276,300037097,0.100577,-0.11628282,0.18469036,0.49762785,-0.06660777,0.29022467,0.01668799,0.5645641
300041759,300041537,0.09677088,-0.09913999,0.19615412,0.4959466,-0.07176453,0.2906301,0.017075896,0.56407094
300044718,300044541,0.09094143,-0.08758384,0.20122695,0.4933717,-0.07847339,0.27931166,0.0075668097,0.56379974
300047741,300047544,0.09564531,-0.097356856,0.18907869,0.49544916,-0.06314635,0.28274512,0.01043272,0.5640289
300052248,300052049,0.10053468,-0.107972324,0.1688894,0.49760902,-0.03786415,0.2895571,0.016086936,0.564278
300055257,300055059,0.10924053,-0.12614793,0.16189301,0.50145453,-0.028746963,0.2978735,0.023098707,0.5650386
300058346,300058168,0.10537064,-0.11753619,0.17045033,0.49974525,-0.0394606,0.28739643,0.014403224,0.5646243
300062766,300062559,0.10266018,-0.11074448,0.19138098,0.49854803,-0.065481424,0.28535783,0.012705445,0.56434304
300065813,300065610,0.09021294,-0.08636588,0.1975925,0.4930498,-0.074071825,0.27344513,0.00183177,0.5637713
300068761,300068566,0.092745066,-0.09186,0.18724549,0.49416822,-0.061108828,0.27777016,0.0062395334,0.5639001
300071751,300071567,0.0921725,-0.09218705,0.16307807,0.49391556,-0.031428754,0.28352094,0.011013389,0.5639078
300076256,300076073,0.10387182,-0.11613768,0.14348352,0.49908334,-0.0068607926,0.2906667,0.017041445,0.5645571
300079361,300079076,0.104547024,-0.11722022,0.1483643,0.49938124,-0.012738764,0.28803587,0.014944434,0.5646092
300083776,300083580,0.10366416,-0.113541484,0.17628396,0.4989915,-0.046883702,0.270424,-0.0015151501,0.5644322
300086774,300086593,0.10033476,-0.10688341,0.1785363,0.49752086,-0.04994911,0.26293564,-0.010018051,0.5642525
300089776,300089586,0.0963105,-0.09942514,0.17342138,0.49574333,-0.04392588,0.26149654,-0.011710107,0.5640776
300094277,300094090,0.10139704,-0.11124611,0.13987064,0.49799004,-0.0027509332,0.27360213,0.0018953085,0.5643547
300097283,300097094,0.1046108,-0.1182304,0.13340509,0.49940965,0.0053218603,0.2765751,0.0052678585,0.56465775
300100352,300100099,0.108425856,-0.12671638,0.12314665,0.50109464,0.017940164,0.26755702,-0.004909873,0.56506604
300103325,300103148,0.1159693,-0.13858712,0.13168943,0.5044267,0.011092663,0.2616173,-0.0114430785,0.56563723
300107824,300107638,0.11666381,-0.1395964,0.13740695,0.5047337,0.0041429996,0.25238502,-0.021951973,0.5656858
300110845,300110657,0.12213564,-0.1506486,0.14296913,0.5071504,-0.0021538138,0.26034606,-0.0129233,0.5662175
300113845,300113610,0.11456728,-0.13508254,0.14081573,0.5038075,-7.69496e-05,0.25833654,-0.0152775645,0.5654685
300118348,300118164,0.12022781,-0.14822191,0.118958116,0.50630796,0.026819825,0.2640301,-0.008847654,0.56610066
300121426,300121118,0.118851185,-0.14569485,0.1134882,0.5056997,0.033334255,0.26183033,-0.01130861,0.5659791
300124299,300124122,0.12346041,-0.15556592,0.10880482,0.50773585,0.039346337,0.26560652,-0.007060945,0.566454
300128884,300128688,0.1319176,-0.17287505,0.112154484,0.5114714,0.035860896,0.2648623,-0.0078034997,0.5672868
300131818,300131629,0.1297319,-0.16748369,0.12584078,0.5105059,0.019134402,0.26428056,-0.008496463,0.5670274
300136349,300136136,0.12556648,-0.15836942,0.13332808,0.50866604,0.009768963,0.2622441,-0.010777891,0.566589
300139315,300139137,0.11658907,-0.13996398,0.12956464,0.50470066,0.013673544,0.25754225,-0.016179025,0.56570333
300142332,300142140,0.119719625,-0.14823204,0.10112512,0.5060833,0.04832828,0.25796235,-0.015773714,0.56610125
300145401,300145226,0.12592328,-0.16133595,0.09774399,0.5088237,0.052883744,0.26301897,-0.009973347,0.56673163
300149893,300149713,0.13434708,-0.1790343,0.09267211,0.5125446,0.05952227,0.2525605,-0.021765709,0.56758314
300152912,300152698,0.13906896,-0.187523,0.11320305,0.5146304,0.034966707,0.25067902,-0.023724854,0.5679916
300157360,300157162,0.13408256,-0.17637777,0.12390053,0.51242775,0.02152121,0.23448777,-0.049404323,0.5674553
300160398,300160203,0.13007116,-0.16780382,0.12862694,0.51065576,0.015560389,0.23838937,-0.0428313,0.5670428
300163468,300163209,0.12132394,-0.15063429,0.11294401,0.50679195,0.033931375,0.23543406,-0.048000276,0.56621677
300167908,300167714,0.13478458,-0.16738236,0.08971381,0.51273763,0.07525778,0.25735664,-0.016380727,0.56702256
300170972,300170791,0.13535404,-0.168212,0.09507954,0.5129894,0.06878102,0.25460875,-0.01941371,0.5670624
300173867,300173673,0.14392185,-0.18597203,0.094341755,0.5167738,0.07021904,0.24922502,-0.025512338,0.56791687
300178405,300178224,0.13587129,-0.16710413,0.1280998,0.5132179,0.028705955,0.23918629,-0.041427255,0.5670091
300181359,300181180,0.13018823,-0.15617675,0.11351836,0.5107075,0.045911312,0.23123229,-0.05493617,0.56648344
300184372,300184182,0.12208521,-0.13886076,0.12239468,0.5071284,0.034635305,0.23440611,-0.049391508,0.56565034
300187369,300187187,0.118166566,-0.13179815,0.105577946,0.50539744,0.05474496,0.23564577,-0.04765737,0.5653106
300191941,300191689,0.12612009,-0.1488728,0.09654069,0.50891054,0.06625521,0.23887098,-0.042007983,0.56613195
300194878,300194693,0.12539113,-0.14750242,0.09348357,0.5085886,0.06985772,0.23067415,-0.05586952,0.5660661
300197908,300197715,0.13287425,-0.16312742,0.09123242,0.511894,0.07306552,0.2260586,-0.06345779,0.5668179
300202379,300202201,0.121304035,-0.13796937,0.109418035,0.50678325,0.050207257,0.21889186,-0.07547289,0.5656074
300205413,300205209,0.1183629,-0.1321708,0.10440278,0.50548416,0.056058884,0.21513045,-0.08175671,0.5653285
300208438,300208264,0.1104542,-0.11533296,0.11149037,0.5019908,0.046928763,0.21341515,-0.084580064,0.56451833
300212973,300212712,0.11527622,-0.12666428,0.090065956,0.5041207,0.07320166,0.21179831,-0.08748537,0.5650635
300215963,300215765,0.11926973,-0.13515073,0.08725381,0.50588447,0.076918006,0.21758235,-0.07762885,0.5654718
300220451,300220275,0.12664318,-0.15138656,0.07156956,0.50914156,0.09638798,0.21183157,-0.08739334,0.5662529
300223456,300223270,0.12622523,-0.14916623,0.09313762,0.50895697,0.07023382,0.2106328,-0.0891068,0.5661462
300226416,300226225,0.1177994,-0.13084418,0.10612047,0.5052351,0.053883433,0.20231855,-0.10313964,0.5652646
300229410,300229229,0.11585617,-0.12627643,0.11438155,0.5043769,0.043718934,0.19737971,-0.11133641,0.56504494
300233922,300233733,0.109170675,-0.1130721,0.1035409,0.50142384,0.056360126,0.1925137,-0.11971229,0.5644096
300236923,300236736,0.11394644,-0.12404555,0.08665669,0.50353324,0.07715583,0.19535041,-0.114922225,0.56493753
300239991,300239803,0.11422789,-0.12529159,0.07659769,0.50365764,0.08939147,0.20086753,-0.10565132,0.56499755
300244426,300244244,0.11979985,-0.13678783,0.07692909,0.5061187,0.08933771,0.19315696,-0.11843109,0.5655507
300247446,300247249,0.11725581,-0.12989205,0.10246205,0.5049951,0.05821383,0.18763852,-0.12756646,0.56521887
300250444,300250249,0.11035657,-0.11471981,0.11554885,0.5019476,0.041834116,0.17726338,-0.14498836,0.56448895
300254948,300254754,0.10278118,-0.09957576,0.1230042,0.49860144,0.032319665,0.18188345,-0.13734114,0.5640811
300257946,300257761,0.1016562,-0.098808765,0.099417806,0.49810457,0.060836554,0.18784976,-0.12754095,0.5640631
300260988,300260807,0.10635507,-0.108685434,0.08587289,0.50018,0.07760811,0.19684505,-0.11234939,0.5642946
300265454,300265264,0.107599735,-0.11115813,0.08447015,0.50073,0.0793829,0.19207132,-0.12029296,0.5643527
300268500,300268315,0.1101836,-0.11539239,0.09911609,0.5018713,0.061721683,0.16980314,-0.15743542,0.56452125
300271502,300271272,0.10110211,-0.09636831,0.12149596,0.49785995,0.033954144,0.16132557,-0.1715914,0.5640058
300276084,300275824,0.09875882,-0.09159511,0.1259948,0.49682477,0.028345942,0.16108859,-0.17204666,0.56389403
300278971,300278779,0.09083378,-0.07665831,0.12087858,0.493324,0.03402984,0.16622019,-0.1635682,0.5635436
300281973,300281781,0.09434247,-0.08495724,0.09457219,0.49487403,0.06614268,0.16887462,-0.15928447,0.5637383
300286473,300286286,0.091451645,-0.079113066,0.0995208,0.49359694,0.059960127,0.16798389,-0.16055554,0.5636011
300289464,300289289,0.10016191,-0.09623009,0.09364402,0.49744433,0.06767821,0.16739333,-0.16158652,0.56400245
300292475,300292292,0.078295946,-0.14279693,0.07327902,0.48918614,0.0056984425,0.06977248,-0.32463193,0.5658397
300296978,300296797,0.07339072,-0.135768,0.08342159,0.48878852,-0.0068235397,0.07111311,-0.322586,0.5655015
300299986,300299801,0.0669533,-0.1269052,0.09101188,0.48826668,-0.016330123,0.0688864,-0.32613808,0.5650751
300303042,300302803,0.05384195,-0.11044967,0.08467913,0.4872041,-0.009221077,0.069342256,-0.3255424,0.5643361
300307486,300307307,0.05920458,-0.11849159,0.06284547,0.48763868,0.015253782,0.061571002,-0.33847582,0.5646703
300310490,300310310,0.060713768,-0.12052947,0.060972214,0.48776108,0.016970634,0.058784485,-0.34316367,0.56476843
300313546,300313367,0.075927734,-0.14749962,0.041843653,0.48899418,0.02851355,0.05670035,-0.34671837,0.56606597
300318014,300317820,0.07119691,-0.13926613,0.082053185,0.4886107,-0.01144439,0.05616331,-0.34733212,0.5656698
300321044,300320869,0.07089591,-0.13851619,0.08762658,0.4885863,-0.018216193,0.05853057,-0.34351903,0.5656338
300324034,300323825,0.062644005,-0.12730181,0.094866395,0.48791748,-0.02739507,0.0544585,-0.35030913,0.56509423
300328559,300328376,0.05658281,-0.12091595,0.071413636,0.48742616,0.00076055527,0.0552814,-0.3491583,0.564787
300331531,300331342,0.06639981,-0.13453805,0.053647995,0.48822182,0.017556548,0.061240554,-0.33907938,0.5654424
300334564,300334339,0.0755775,-0.14651108,0.053528428,0.48896578,0.018116832,0.07229388,-0.32054502,0.5660184
300339024,300338839,0.08761811,-0.16569364,0.06722593,0.49190357,0.006609559,0.07381427,-0.31783164,0.5669413
300342027,300341843,0.082663536,-0.1542536,0.08457816,0.4897151,-0.014117122,0.06381798,-0.33459586,0.5663909
300345033,300344846,0.048224807,-0.18384063,0.054221988,0.48674875,-0.053677857,0.051906824,-0.35460073,0.56781435
300349540,300349350,0.03475821,-0.16697097,0.045573235,0.48565722,-0.04667139,0.051383138,-0.35553408,0.5670027
300352552,300352379,0.040918946,-0.17639756,0.016038418,0.48615664,-0.020010412,0.063467264,-0.33544022,0.5674563
300355539,300355356,0.052270055,-0.19175172,0.0036592484,0.48707658,-0.008501887,0.07310164,-0.319233,0.568195
300360041,300359860,0.06704354,-0.21028566,0.016983509,0.4882741,-0.019698441,0.076806664,-0.31300294,0.56908673
300363057,300362864,0.06764984,-0.2102226,0.03082633,0.4883232,-0.032164514,0.061285615,-0.33885932,0.5690836
300366125,300365923,0.061187148,-0.20083237,0.050420403,0.48779938,-0.05012536,0.055465817,-0.34859824,0.5686319
300370559,300370371,0.05458641,-0.19238007,0.047727466,0.48726436,-0.047995985,0.05765629,-0.34497672,0.5682252
300373625,300373422,0.052994013,-0.19068348,0.041251063,0.48713526,-0.042139113,0.06780958,-0.3280871,0.56814367
300376567,300376384,0.058662534,-0.19908655,0.019457221,0.4875947,-0.022473335,0.074772716,-0.3164761,0.56854784
300381134,300380930,0.07189047,-0.2163915,0.014529228,0.48866683,-0.017634809,0.07273626,-0.31987232,0.5693805
300384125,300383949,0.07782602,-0.22374523,0.020038128,0.489148,-0.022367418,0.06760466,-0.32837367,0.5697343
300387094,300386889,0.07835269,-0.22400135,0.026180983,0.48919073,-0.0279392,0.060086846,-0.34091306,0.56974655
300391633,300391448,0.06866336,-0.2106874,0.04194796,0.48840535,-0.042417586,0.06363189,-0.33495903,0.569106
300394593,300394396,0.062481046,-0.20270169,0.04068041,0.4879043,-0.041564763,0.06333172,-0.33553183,0.5687218
300397622,300397400,0.058538437,-0.19738817,0.04628694,0.48758468,-0.046730578,0.06998086,-0.3243581,0.5684661
300402078,300401903,0.023417115,-0.25453824,-0.03775865,0.48473802,-0.06802422,0.0659436,-0.33128905,0.5712157
300405095,300404906,0.028832555,-0.26151788,-0.036728263,0.48517692,-0.068721056,0.06580937,-0.33135557,0.57155144
